{
    "last_updated": "16/09/2024 10:30:09",
    "stations": [
        {
            "site_id": "gcvbmhe47c8b",
            "brand": "Morrisons",
            "address": "Kingstown Road",
            "postcode": "CA3 0QZ",
            "location": {
                "longitude": "-2.940054",
                "latitude": "54.912809"
            },
            "prices": {
                "E10": 130.7,
                "B7": 136.7,
                "E5": 140.7
            }
        },
        {
            "site_id": "gcq5yd623v6e",
            "brand": "Morrisons",
            "address": "Spring Hill",
            "postcode": "TF1 1RP",
            "location": {
                "longitude": "-2.523687",
                "latitude": "52.702861"
            },
            "prices": {
                "E10": 132.7,
                "B7": 135.7,
                "E5": 149.9
            }
        },
        {
            "site_id": "gcuve776dgwd",
            "brand": "Morrisons",
            "address": "Falside Road",
            "postcode": "PA2 6JE",
            "location": {
                "longitude": "-4.4229",
                "latitude": "55.828848"
            },
            "prices": {
                "E10": 131.7,
                "B7": 134.7
            }
        },
        {
            "site_id": "gfj8cdyssmkx",
            "brand": "Morrisons",
            "address": "Caledonian Road",
            "postcode": "PH1 5XD",
            "location": {
                "longitude": "-3.440592",
                "latitude": "56.397744"
            },
            "prices": {
                "E10": 131.7,
                "B7": 137.7,
                "E5": 146.7
            }
        },
        {
            "site_id": "gchyvynu3ne0",
            "brand": "Morrisons",
            "address": "Parc Pensarn",
            "postcode": "SA31 2NF",
            "location": {
                "longitude": "-4.30831",
                "latitude": "51.845247"
            },
            "prices": {
                "E10": 131.7,
                "B7": 135.7,
                "E5": 149.9
            }
        },
        {
            "site_id": "gfnxpm97dxmw",
            "brand": "Morrisons",
            "address": "Queen Street",
            "postcode": "AB42 1HG",
            "location": {
                "longitude": "-1.78894",
                "latitude": "57.511322"
            },
            "prices": {
                "E10": 131.7,
                "B7": 133.7,
                "E5": 146.7
            }
        },
        {
            "site_id": "gfn02n4tgtk4",
            "brand": "Morrisons",
            "address": "45 Largo Road",
            "postcode": "KY16 8PJ",
            "location": {
                "longitude": "-2.808911",
                "latitude": "56.32792"
            },
            "prices": {
                "E10": 136.7,
                "B7": 141.7,
                "E5": 155.9
            }
        },
        {
            "site_id": "gcvppp3xpchs",
            "brand": "Morrisons",
            "address": "Munro Road",
            "postcode": "FK7 7SR",
            "location": {
                "longitude": "-3.908734",
                "latitude": "56.115252"
            },
            "prices": {
                "E10": 131.7,
                "B7": 135.7,
                "E5": 155.9
            }
        },
        {
            "site_id": "gcqhzrsu68gu",
            "brand": "Morrisons",
            "address": "Maer Lane",
            "postcode": "TF9 3AL",
            "location": {
                "longitude": "-2.487261",
                "latitude": "52.908144"
            },
            "prices": {
                "E10": 131.9,
                "B7": 135.9,
                "E5": 149.9
            }
        },
        {
            "site_id": "gcu2mfbh15ey",
            "brand": "Morrisons",
            "address": "London Road",
            "postcode": "DG9 8ES",
            "location": {
                "longitude": "-5.020704",
                "latitude": "54.903508"
            },
            "prices": {
                "E10": 134.7,
                "B7": 137.7,
                "E5": 155.9
            }
        },
        {
            "site_id": "gcuevzu7khfm",
            "brand": "Morrisons",
            "address": "10 Dukes Road",
            "postcode": "KA10 6QX",
            "location": {
                "longitude": "-4.663178",
                "latitude": "55.546086"
            },
            "prices": {
                "E10": 132.7,
                "B7": 138.7
            }
        },
        {
            "site_id": "gcuv9jns04tp",
            "brand": "Morrisons",
            "address": "30 Napier Street",
            "postcode": "PA5 8SF",
            "location": {
                "longitude": "-4.517434",
                "latitude": "55.838714"
            },
            "prices": {
                "E10": 131.7,
                "B7": 134.7,
                "E5": 146.7
            }
        },
        {
            "site_id": "gcr4bx703v6w",
            "brand": "Morrisons",
            "address": "Normandy Way",
            "postcode": "LE10 1YA",
            "location": {
                "longitude": "-1.380079",
                "latitude": "52.554546"
            },
            "prices": {
                "E10": 133.7,
                "B7": 139.7,
                "E5": 143.7
            }
        },
        {
            "site_id": "gcp395t6dws8",
            "brand": "Morrisons",
            "address": "Lakesmere Road",
            "postcode": "PO8 9FB",
            "location": {
                "longitude": "-1.003419",
                "latitude": "50.908362"
            },
            "prices": {
                "E10": 132.7,
                "B7": 136.7,
                "E5": 152.7
            }
        },
        {
            "site_id": "gcw9ubvhttm3",
            "brand": "Morrisons",
            "address": "Keighley Road",
            "postcode": "HX2 8HU",
            "location": {
                "longitude": "-1.893525",
                "latitude": "53.750038"
            },
            "prices": {
                "E10": 131.7,
                "B7": 136.7,
                "E5": 149.9
            }
        },
        {
            "site_id": "gcr5q5rjbvg9",
            "brand": "Morrisons",
            "address": "Aylestone Road",
            "postcode": "LE2 7LT",
            "location": {
                "longitude": "-1.132928",
                "latitude": "52.62141"
            },
            "prices": {
                "E10": 133.7,
                "B7": 139.7,
                "E5": 143.7
            }
        },
        {
            "site_id": "gcp06t5qh7gh",
            "brand": "Morrisons",
            "address": "South Street",
            "postcode": "PO30 1JQ",
            "location": {
                "longitude": "-1.291737",
                "latitude": "50.697462"
            },
            "prices": {
                "E10": 136.7,
                "B7": 141.7
            }
        },
        {
            "site_id": "gcp95eg6zbv9",
            "brand": "Morrisons",
            "address": "Hawthorn Road",
            "postcode": "BN17 7LA",
            "location": {
                "longitude": "-0.544513",
                "latitude": "50.821857"
            },
            "prices": {
                "E10": 130.7,
                "B7": 135.7,
                "E5": 149.9
            }
        },
        {
            "site_id": "gcrh7b68q6yk",
            "brand": "Morrisons",
            "address": "Gorse Covert Centre",
            "postcode": "LE11 5RX",
            "location": {
                "longitude": "-1.237745",
                "latitude": "52.779752"
            },
            "prices": {
                "E10": 130.7,
                "B7": 135.7
            }
        },
        {
            "site_id": "gcqdrs2rr34c",
            "brand": "Morrisons",
            "address": "2259-2297 Coventry Road",
            "postcode": "B26 3PD",
            "location": {
                "longitude": "-1.779127",
                "latitude": "52.451354"
            },
            "prices": {
                "E10": 130.7,
                "B7": 135.7,
                "E5": 149.9
            }
        },
        {
            "site_id": "gcquhwu6w8sx",
            "brand": "Morrisons",
            "address": "Coppice Side",
            "postcode": "DE11 8HL",
            "location": {
                "longitude": "-1.553937",
                "latitude": "52.771887"
            },
            "prices": {
                "E10": 133.7,
                "B7": 137.7,
                "E5": 143.7
            }
        },
        {
            "site_id": "gcmyt0xj5rzf",
            "brand": "Morrisons",
            "address": "High Street",
            "postcode": "CH4 8RU",
            "location": {
                "longitude": "-2.934573",
                "latitude": "53.177475"
            },
            "prices": {
                "E10": 131.7,
                "B7": 135.7,
                "E5": 149.9
            }
        },
        {
            "site_id": "gcqdt882rqz9",
            "brand": "Morrisons",
            "address": "280 Coventry Road",
            "postcode": "B10 0XA",
            "location": {
                "longitude": "-1.867011",
                "latitude": "52.473529"
            },
            "prices": {
                "E10": 129.7,
                "B7": 134.7,
                "E5": 149.9
            }
        },
        {
            "site_id": "gcybgbht7tx4",
            "brand": "Morrisons",
            "address": "Shields Road",
            "postcode": "NE6 1EJ",
            "location": {
                "longitude": "-1.586678",
                "latitude": "54.976517"
            },
            "prices": {
                "E10": 131.7,
                "B7": 135.7
            }
        },
        {
            "site_id": "gcrcn6r5f0kn",
            "brand": "Morrisons",
            "address": "Broad Street",
            "postcode": "CB23 6EY",
            "location": {
                "longitude": "-0.0672",
                "latitude": "52.220037"
            },
            "prices": {
                "E10": 135.7,
                "B7": 140.7
            }
        },
        {
            "site_id": "gcpvydq4n78n",
            "brand": "Morrisons",
            "address": "327 Southbury Road",
            "postcode": "EN1 1TW",
            "location": {
                "longitude": "-0.05741",
                "latitude": "51.648465"
            },
            "prices": {
                "E10": 132.9,
                "B7": 137.9
            }
        },
        {
            "site_id": "gcr5bzhunmuu",
            "brand": "Morrisons",
            "address": "Whitwick Road",
            "postcode": "LE67 3JN",
            "location": {
                "longitude": "-1.366493",
                "latitude": "52.7296"
            },
            "prices": {
                "E10": 133.7,
                "B7": 137.7,
                "E5": 143.7
            }
        },
        {
            "site_id": "gcwcerzyx6gg",
            "brand": "Morrisons",
            "address": "Windsor Court",
            "postcode": "LS27 9BX",
            "location": {
                "longitude": "-1.604031",
                "latitude": "53.744875"
            },
            "prices": {
                "E10": 130.7,
                "B7": 135.7,
                "E5": 149.9
            }
        },
        {
            "site_id": "gfnt0k3e1yje",
            "brand": "Morrisons",
            "address": "215 King Street",
            "postcode": "AB24 5DA",
            "location": {
                "longitude": "-2.096246",
                "latitude": "57.1528"
            },
            "prices": {
                "E10": 129.7,
                "B7": 133.7,
                "E5": 155.9
            }
        },
        {
            "site_id": "gcvr4pkvu5f7",
            "brand": "Morrisons",
            "address": "Clackmannan Road",
            "postcode": "FK10 1RQ",
            "location": {
                "longitude": "-3.772599",
                "latitude": "56.115052"
            },
            "prices": {
                "E10": 132.7,
                "B7": 135.7,
                "E5": 147.7
            }
        },
        {
            "site_id": "gfkbpqw75kr5",
            "brand": "Morrisons",
            "address": "Dalmore Road",
            "postcode": "IV17 0UF",
            "location": {
                "longitude": "-4.242977",
                "latitude": "57.692494"
            },
            "prices": {
                "E10": 136.7,
                "B7": 141.7
            }
        },
        {
            "site_id": "gcp0j5gh282u",
            "brand": "Morrisons",
            "address": "Newport Road",
            "postcode": "PO36 9PA",
            "location": {
                "longitude": "-1.182381",
                "latitude": "50.646331"
            },
            "prices": {
                "E10": 136.7,
                "B7": 141.7,
                "E5": 149.9
            }
        },
        {
            "site_id": "gcqq04ef2ed7",
            "brand": "Morrisons",
            "address": "Dunwoody Way",
            "postcode": "CW1 3AW",
            "location": {
                "longitude": "-2.455763",
                "latitude": "53.100076"
            },
            "prices": {
                "E10": 131.7,
                "B7": 135.7
            }
        },
        {
            "site_id": "gfn1v0spt96q",
            "brand": "Morrisons",
            "address": "Hume Street",
            "postcode": "DD11 1LL",
            "location": {
                "longitude": "-2.587041",
                "latitude": "56.561659"
            },
            "prices": {
                "E10": 130.7,
                "B7": 134.7
            }
        },
        {
            "site_id": "u100f68j5w6z",
            "brand": "Morrisons",
            "address": "Dane Road",
            "postcode": "BN25 1DL",
            "location": {
                "longitude": "0.099031",
                "latitude": "50.771462"
            },
            "prices": {
                "E10": 132.7,
                "B7": 137.7,
                "E5": 149.9
            }
        },
        {
            "site_id": "gcueqz266429",
            "brand": "Morrisons",
            "address": "Castlehill Road",
            "postcode": "KA7 2HT",
            "location": {
                "longitude": "-4.624814",
                "latitude": "55.455263"
            },
            "prices": {
                "E10": 131.7,
                "B7": 135.7,
                "E5": 146.7
            }
        },
        {
            "site_id": "gcq99h1f5cs0",
            "brand": "Morrisons",
            "address": "Buntsford Park Road",
            "postcode": "B60 3DX",
            "location": {
                "longitude": "-2.06286",
                "latitude": "52.317246"
            },
            "prices": {
                "E10": 135.7,
                "B7": 138.7,
                "E5": 145.7
            }
        },
        {
            "site_id": "gcpvxdc3p8p9",
            "brand": "Morrisons",
            "address": "6-7 Salisbury Hall Gardens",
            "postcode": "E4 8SN",
            "location": {
                "longitude": "-0.019924",
                "latitude": "51.607075"
            },
            "prices": {
                "E10": 132.9,
                "B7": 137.9
            }
        },
        {
            "site_id": "gcn9mm9x82qr",
            "brand": "Morrisons",
            "address": "Chiltern Drive",
            "postcode": "BH31 6UQ",
            "location": {
                "longitude": "-1.876583",
                "latitude": "50.876229"
            },
            "prices": {
                "E10": 135.7,
                "B7": 139.7,
                "E5": 149.9
            }
        },
        {
            "site_id": "gcwf0w91rdk1",
            "brand": "Morrisons",
            "address": "275 Bradford Road",
            "postcode": "BD10 8EG",
            "location": {
                "longitude": "-1.734139",
                "latitude": "53.824995"
            },
            "prices": {
                "E10": 130.7,
                "B7": 136.7,
                "E5": 149.9
            }
        },
        {
            "site_id": "gcwyjufn43u7",
            "brand": "Morrisons",
            "address": "Morton Park Way",
            "postcode": "DL1 4PJ",
            "location": {
                "longitude": "-1.502278",
                "latitude": "54.51932"
            },
            "prices": {
                "E10": 134.7,
                "B7": 140.7,
                "E5": 149.9
            }
        },
        {
            "site_id": "gcqdxv76t39e",
            "brand": "Morrisons",
            "address": "264 Chester Road",
            "postcode": "B34 7HR",
            "location": {
                "longitude": "-1.764108",
                "latitude": "52.49998"
            },
            "prices": {
                "E10": 131.7,
                "B7": 136.7,
                "E5": 149.9
            }
        },
        {
            "site_id": "gcuy20n7vxe3",
            "brand": "Morrisons",
            "address": "Glasgow Road",
            "postcode": "G82 1QZ",
            "location": {
                "longitude": "-4.561489",
                "latitude": "55.943067"
            },
            "prices": {
                "E10": 135.7,
                "B7": 140.7,
                "E5": 150.7
            }
        },
        {
            "site_id": "gcuypck088u3",
            "brand": "Morrisons",
            "address": "The Triangle Centre",
            "postcode": "G64 2TR",
            "location": {
                "longitude": "-4.224216",
                "latitude": "55.905394"
            },
            "prices": {
                "E10": 130.7,
                "B7": 134.7,
                "E5": 155.9
            }
        },
        {
            "site_id": "gcmx2dhz0g81",
            "brand": "Morrisons",
            "address": "Marsh Road",
            "postcode": "LL18 2DF",
            "location": {
                "longitude": "-3.487097",
                "latitude": "53.317871"
            },
            "prices": {
                "E10": 136.7,
                "B7": 141.7,
                "E5": 149.9
            }
        },
        {
            "site_id": "gfnhxd3e8ted",
            "brand": "Morrisons",
            "address": "North Deeside Road",
            "postcode": "AB31 5YR",
            "location": {
                "longitude": "-2.480824",
                "latitude": "57.054006"
            },
            "prices": {
                "E10": 131.7,
                "B7": 137.7
            }
        },
        {
            "site_id": "gcrwg3kd32nj",
            "brand": "Morrisons",
            "address": "Tritton Road",
            "postcode": "LN6 7QL",
            "location": {
                "longitude": "-0.554061",
                "latitude": "53.225027"
            },
            "prices": {
                "E10": 129.7,
                "B7": 134.7,
                "E5": 149.9
            }
        },
        {
            "site_id": "gcq5cycncbm6",
            "brand": "Morrisons",
            "address": "Whitchurch Road",
            "postcode": "SY1 4DL",
            "location": {
                "longitude": "-2.73414",
                "latitude": "52.728669"
            },
            "prices": {
                "E10": 130.7,
                "B7": 134.7,
                "E5": 140.7
            }
        },
        {
            "site_id": "gcqfp69ygg8w",
            "brand": "Morrisons",
            "address": "Skipworth Road",
            "postcode": "CV3 2AN",
            "location": {
                "longitude": "-1.436644",
                "latitude": "52.397724"
            },
            "prices": {
                "E10": 132.7,
                "B7": 135.7,
                "E5": 149.9
            }
        },
        {
            "site_id": "gcv3q0bcvbfb",
            "brand": "Morrisons",
            "address": "Brooms Road",
            "postcode": "DG1 2DR",
            "location": {
                "longitude": "-3.602235",
                "latitude": "55.067901"
            },
            "prices": {
                "E10": 130.7,
                "B7": 135.7,
                "E5": 155.9
            }
        },
        {
            "site_id": "gcq2ed5r90xm",
            "brand": "Morrisons",
            "address": "Roman Way",
            "postcode": "WR14 1PZ",
            "location": {
                "longitude": "-2.302613",
                "latitude": "52.131418"
            },
            "prices": {
                "E10": 134.7,
                "B7": 139.7,
                "E5": 149.9
            }
        },
        {
            "site_id": "eykjw5bzy2zk",
            "brand": "Morrisons",
            "address": "Westside Road",
            "postcode": "GX11 1AA",
            "location": {
                "longitude": "-5.360020161",
                "latitude": "36.14498138"
            },
            "prices": {
                "E10": 106.9,
                "B7": 100.9,
                "E5": 111.9
            }
        },
        {
            "site_id": "gcjwn92dh306",
            "brand": "Morrisons",
            "address": "Bargoed Gateway",
            "postcode": "CF81 8NX",
            "location": {
                "longitude": "-3.229111",
                "latitude": "51.686903"
            },
            "prices": {
                "E10": 133.7,
                "B7": 137.7,
                "E5": 149.9
            }
        },
        {
            "site_id": "gfh77b43cgp4",
            "brand": "Morrisons",
            "address": "An Aird Road",
            "postcode": "PH33 6AN",
            "location": {
                "longitude": "-5.105468",
                "latitude": "56.821606"
            },
            "prices": {
                "E10": 137.9,
                "B7": 141.9,
                "E5": 152.9
            }
        },
        {
            "site_id": "gcqjysnx0nux",
            "brand": "Morrisons",
            "address": "Station Road",
            "postcode": "CW5 5SP",
            "location": {
                "longitude": "-2.517923",
                "latitude": "53.065204"
            },
            "prices": {
                "E10": 132.7,
                "B7": 137.7,
                "E5": 142.7
            }
        },
        {
            "site_id": "gcuvvwg05em7",
            "brand": "Morrisons",
            "address": "900 Crow Road",
            "postcode": "G13 1HY",
            "location": {
                "longitude": "-4.324336",
                "latitude": "55.891589"
            },
            "prices": {
                "E10": 131.7,
                "B7": 136.7,
                "E5": 155.9
            }
        },
        {
            "site_id": "gcqmt3ep7r51",
            "brand": "Morrisons",
            "address": "Goose Street",
            "postcode": "ST5 3HY",
            "location": {
                "longitude": "-2.225961",
                "latitude": "53.007569"
            },
            "prices": {
                "E10": 129.7,
                "B7": 133.7,
                "E5": 149.9
            }
        },
        {
            "site_id": "gcq9s9jm103c",
            "brand": "Morrisons",
            "address": "Warwick Highway",
            "postcode": "B98 0SW",
            "location": {
                "longitude": "-1.904366",
                "latitude": "52.301275"
            },
            "prices": {
                "E10": 131.7,
                "B7": 135.7,
                "E5": 149.9
            }
        },
        {
            "site_id": "gcqd46d60ngn",
            "brand": "Morrisons",
            "address": "Rubery",
            "postcode": "B45 9AH",
            "location": {
                "longitude": "-2.007404",
                "latitude": "52.396926"
            },
            "prices": {
                "E10": 134.7,
                "B7": 139.7,
                "E5": 149.9
            }
        },
        {
            "site_id": "gcuvet8597kd",
            "brand": "Morrisons",
            "address": "Anchor Mills",
            "postcode": "PA1 1GZ",
            "location": {
                "longitude": "-4.416444",
                "latitude": "55.841378"
            },
            "prices": {
                "E10": 131.7,
                "B7": 134.7
            }
        },
        {
            "site_id": "gcr5s8gpj157",
            "brand": "Morrisons",
            "address": "Station Road",
            "postcode": "LE3 8BQ",
            "location": {
                "longitude": "-1.20415718650816",
                "latitude": "52.6518118189286"
            },
            "prices": {
                "E10": 134.7,
                "B7": 138.7,
                "E5": 144.7
            }
        },
        {
            "site_id": "u135ntj71ffp",
            "brand": "Morrisons",
            "address": "Blackbird Close",
            "postcode": "NR31 8RT",
            "location": {
                "longitude": "1.69918211772153",
                "latitude": "52.5865904879616"
            },
            "prices": {
                "E10": 131.7,
                "B7": 135.7,
                "E5": 149.9
            }
        },
        {
            "site_id": "gcqpthqqhd8c",
            "brand": "Morrisons",
            "address": "Greenalls Avenue",
            "postcode": "WA4 6RN",
            "location": {
                "longitude": "-2.583996",
                "latitude": "53.373999"
            },
            "prices": {
                "E10": 131.7,
                "B7": 135.7,
                "E5": 149.9
            }
        },
        {
            "site_id": "gcqg3csk8ywm",
            "brand": "Morrisons",
            "address": "Marlborough Way",
            "postcode": "B77 2NY",
            "location": {
                "longitude": "-1.675031",
                "latitude": "52.611587"
            },
            "prices": {
                "E10": 134.7,
                "B7": 139.7,
                "E5": 144.7
            }
        },
        {
            "site_id": "gcrrwzxsq9mg",
            "brand": "Morrisons",
            "address": "Heapham Road South",
            "postcode": "DN21 1XY",
            "location": {
                "longitude": "-0.74747",
                "latitude": "53.391545"
            },
            "prices": {
                "E10": 129.7,
                "B7": 133.7
            }
        },
        {
            "site_id": "gcqnwu2fv410",
            "brand": "Morrisons",
            "address": "Nat Lane",
            "postcode": "CW7 3GZ",
            "location": {
                "longitude": "-2.514623",
                "latitude": "53.197657"
            },
            "prices": {
                "E10": 132.7,
                "B7": 136.7,
                "E5": 149.9
            }
        },
        {
            "site_id": "gcvxxyxe2rqr",
            "brand": "Morrisons",
            "address": "Flemington Road",
            "postcode": "KY7 5QS",
            "location": {
                "longitude": "-3.16473",
                "latitude": "56.198413"
            },
            "prices": {
                "E10": 130.7,
                "B7": 137.7,
                "E5": 155.9
            }
        },
        {
            "site_id": "gcuw7bm7z6dk",
            "brand": "Morrisons",
            "address": "Rue End Street",
            "postcode": "PA15 1EL",
            "location": {
                "longitude": "-4.749556",
                "latitude": "55.944414"
            },
            "prices": {
                "E10": 130.7,
                "B7": 134.7,
                "E5": 155.9
            }
        },
        {
            "site_id": "gcn7q363ty1h",
            "brand": "Morrisons",
            "address": "Weymouth Street",
            "postcode": "BA12 9NJ",
            "location": {
                "longitude": "-2.182941",
                "latitude": "51.203446"
            },
            "prices": {
                "E10": 134.7,
                "B7": 139.7,
                "E5": 144.7
            }
        },
        {
            "site_id": "gcvz0h2b3y1p",
            "brand": "Morrisons",
            "address": "The Esplanade",
            "postcode": "KY1 1SL",
            "location": {
                "longitude": "-3.162956",
                "latitude": "56.097641"
            },
            "prices": {
                "E10": 132.7,
                "B7": 139.7,
                "E5": 155.9
            }
        },
        {
            "site_id": "gcy52djc7hy5",
            "brand": "Morrisons",
            "address": "Mart Street",
            "postcode": "TD9 9NQ",
            "location": {
                "longitude": "-2.782494",
                "latitude": "55.426266"
            },
            "prices": {
                "E10": 129.7,
                "B7": 135.7,
                "E5": 155.9
            }
        },
        {
            "site_id": "gfjp001hymvw",
            "brand": "Morrisons",
            "address": "Millburn Road",
            "postcode": "IV2 3PX",
            "location": {
                "longitude": "-4.217101",
                "latitude": "57.481316"
            },
            "prices": {
                "E10": 131.7,
                "B7": 136.7
            }
        },
        {
            "site_id": "gctqq3tdqbu1",
            "brand": "Morrisons",
            "address": "Flatt Walks",
            "postcode": "CA28 7RJ",
            "location": {
                "longitude": "-3.584681",
                "latitude": "54.544763"
            },
            "prices": {
                "E10": 130.7,
                "B7": 136.7,
                "E5": 140.7
            }
        },
        {
            "site_id": "gfjckfwjcxct",
            "brand": "Morrisons",
            "address": "1 Afton Way",
            "postcode": "DD4 8BR",
            "location": {
                "longitude": "-2.947016",
                "latitude": "56.484489"
            },
            "prices": {
                "E10": 130.7,
                "B7": 134.7,
                "E5": 155.9
            }
        },
        {
            "site_id": "gfnmcs25qtp0",
            "brand": "Morrisons",
            "address": "Blackhall Road",
            "postcode": "AB51 4JP",
            "location": {
                "longitude": "-2.394731",
                "latitude": "57.284673"
            },
            "prices": {
                "E10": 133.7,
                "B7": 136.7,
                "E5": 155.9
            }
        },
        {
            "site_id": "gctqyfgnyheg",
            "brand": "Morrisons",
            "address": "Derwent Drive",
            "postcode": "CA14 3UG",
            "location": {
                "longitude": "-3.566174",
                "latitude": "54.640313"
            },
            "prices": {
                "E10": 132.7,
                "B7": 138.7,
                "E5": 149.9
            }
        },
        {
            "site_id": "gcpvf1w275nb",
            "brand": "Morrisons",
            "address": "Stirling Way",
            "postcode": "WD6 2RN",
            "location": {
                "longitude": "-0.254951",
                "latitude": "51.644041"
            },
            "prices": {
                "E10": 131.7,
                "B7": 136.7,
                "E5": 149.9
            }
        },
        {
            "site_id": "gcjtqv37tkgy",
            "brand": "Morrisons",
            "address": "Castle Court",
            "postcode": "CF83 1XP",
            "location": {
                "longitude": "-3.217047",
                "latitude": "51.577318"
            },
            "prices": {
                "E10": 133.7,
                "B7": 137.7,
                "E5": 149.9
            }
        },
        {
            "site_id": "gcpx349n7jfx",
            "brand": "Morrisons",
            "address": "Lake Street",
            "postcode": "LU7 1WS",
            "location": {
                "longitude": "-0.657674",
                "latitude": "51.914252"
            },
            "prices": {
                "E10": 130.7,
                "B7": 135.7,
                "E5": 149.9
            }
        },
        {
            "site_id": "gcp5wu6ct75b",
            "brand": "Morrisons",
            "address": "Worting Road",
            "postcode": "RG21 8BJ",
            "location": {
                "longitude": "-1.105612",
                "latitude": "51.263854"
            },
            "prices": {
                "E10": 131.7,
                "B7": 136.7,
                "E5": 149.9
            }
        },
        {
            "site_id": "gcuwscrfnmc1",
            "brand": "Morrisons",
            "address": "Cardross Road",
            "postcode": "G84 7LB",
            "location": {
                "longitude": "-4.702222",
                "latitude": "55.993569"
            },
            "prices": {
                "E10": 137.7,
                "B7": 141.7,
                "E5": 152.7
            }
        },
        {
            "site_id": "gcjtp5vrw56d",
            "brand": "Morrisons",
            "address": "Ty Glas Road",
            "postcode": "CF14 5EP",
            "location": {
                "longitude": "-3.200537",
                "latitude": "51.525811"
            },
            "prices": {
                "E10": 131.7,
                "B7": 135.7,
                "E5": 149.9
            }
        },
        {
            "site_id": "gcjubrpwuefw",
            "brand": "Morrisons",
            "address": "507 Newport Road",
            "postcode": "CF23 9UF",
            "location": {
                "longitude": "-3.14258",
                "latitude": "51.499593"
            },
            "prices": {
                "E10": 131.7,
                "B7": 136.7,
                "E5": 149.9
            }
        },
        {
            "site_id": "u100yx23c7pb",
            "brand": "Morrisons",
            "address": "Lottbridge Drove",
            "postcode": "BN23 6QN",
            "location": {
                "longitude": "0.286052",
                "latitude": "50.796978"
            },
            "prices": {
                "E10": 129.7,
                "B7": 135.7,
                "E5": 149.9
            }
        },
        {
            "site_id": "gcqckvuqbzsh",
            "brand": "Morrisons",
            "address": "Old Warwick Road",
            "postcode": "CV31 3NU",
            "location": {
                "longitude": "-1.543198",
                "latitude": "52.283762"
            },
            "prices": {
                "E10": 132.7,
                "B7": 134.7,
                "E5": 149.9
            }
        },
        {
            "site_id": "gcpuy6r0tqjf",
            "brand": "Morrisons",
            "address": "Aylesham Centre, Rye Lane",
            "postcode": "SE15 5EW",
            "location": {
                "longitude": "-0.067058",
                "latitude": "51.472439"
            },
            "prices": {
                "E10": 132.9,
                "B7": 137.9,
                "E5": 142.9
            }
        },
        {
            "site_id": "gcpv92rbv59x",
            "brand": "Morrisons",
            "address": "Honeypot Lane",
            "postcode": "NW9 6RN",
            "location": {
                "longitude": "-0.285771",
                "latitude": "51.593319"
            },
            "prices": {
                "E10": 147.7,
                "B7": 155.7,
                "E5": 159.7
            }
        },
        {
            "site_id": "gcwc9c410r8w",
            "brand": "Morrisons",
            "address": "17 Union Street",
            "postcode": "WF16 0HD",
            "location": {
                "longitude": "-1.67815",
                "latitude": "53.706878"
            },
            "prices": {
                "E10": 130.7,
                "B7": 135.7,
                "E5": 140.7
            }
        }
    ]
}