{
    "last_updated": "20/08/2024 10:30:41",
    "stations": [
        {
            "site_id": "gcuve776dgwd",
            "brand": "Morrisons",
            "address": "Falside Road",
            "postcode": "PA2 6JE",
            "location": {
                "longitude": "-4.4229",
                "latitude": "55.828848"
            },
            "prices": {
                "E10": 137.7,
                "B7": 142.7
            }
        },
        {
            "site_id": "gfj8cdyssmkx",
            "brand": "Morrisons",
            "address": "Caledonian Road",
            "postcode": "PH1 5XD",
            "location": {
                "longitude": "-3.440592",
                "latitude": "56.397744"
            },
            "prices": {
                "E10": 138.7,
                "B7": 145.7,
                "E5": 153.7
            }
        },
        {
            "site_id": "gfnxpm97dxmw",
            "brand": "Morrisons",
            "address": "Queen Street",
            "postcode": "AB42 1HG",
            "location": {
                "longitude": "-1.78894",
                "latitude": "57.511322"
            },
            "prices": {
                "E10": 139.7,
                "B7": 141.7,
                "E5": 154.7
            }
        },
        {
            "site_id": "gfn02n4tgtk4",
            "brand": "Morrisons",
            "address": "45 Largo Road",
            "postcode": "KY16 8PJ",
            "location": {
                "longitude": "-2.808911",
                "latitude": "56.32792"
            },
            "prices": {
                "E10": 142.7,
                "B7": 147.9,
                "E5": 159.9
            }
        },
        {
            "site_id": "gcvppp3xpchs",
            "brand": "Morrisons",
            "address": "Munro Road",
            "postcode": "FK7 7SR",
            "location": {
                "longitude": "-3.908734",
                "latitude": "56.115252"
            },
            "prices": {
                "E10": 138.7,
                "B7": 143.7,
                "E5": 159.9
            }
        },
        {
            "site_id": "gcu2mfbh15ey",
            "brand": "Morrisons",
            "address": "London Road",
            "postcode": "DG9 8ES",
            "location": {
                "longitude": "-5.020704",
                "latitude": "54.903508"
            },
            "prices": {
                "E10": 141.7,
                "B7": 144.7,
                "E5": 159.9
            }
        },
        {
            "site_id": "gcuevzu7khfm",
            "brand": "Morrisons",
            "address": "10 Dukes Road",
            "postcode": "KA10 6QX",
            "location": {
                "longitude": "-4.663178",
                "latitude": "55.546086"
            },
            "prices": {
                "E10": 136.7,
                "B7": 143.7
            }
        },
        {
            "site_id": "gcr4bx703v6w",
            "brand": "Morrisons",
            "address": "Normandy Way",
            "postcode": "LE10 1YA",
            "location": {
                "longitude": "-1.380079",
                "latitude": "52.554546"
            },
            "prices": {
                "E10": 139.7,
                "B7": 145.7,
                "E5": 149.7
            }
        },
        {
            "site_id": "gcp395t6dws8",
            "brand": "Morrisons",
            "address": "Lakesmere Road",
            "postcode": "PO8 9FB",
            "location": {
                "longitude": "-1.003419",
                "latitude": "50.908362"
            },
            "prices": {
                "E10": 139.7,
                "B7": 143.7,
                "E5": 152.7
            }
        },
        {
            "site_id": "gcw9ubvhttm3",
            "brand": "Morrisons",
            "address": "Keighley Road",
            "postcode": "HX2 8HU",
            "location": {
                "longitude": "-1.893525",
                "latitude": "53.750038"
            },
            "prices": {
                "E10": 137.7,
                "B7": 143.7,
                "E5": 155.9
            }
        },
        {
            "site_id": "gcr5q5rjbvg9",
            "brand": "Morrisons",
            "address": "Aylestone Road",
            "postcode": "LE2 7LT",
            "location": {
                "longitude": "-1.132928",
                "latitude": "52.62141"
            },
            "prices": {
                "E10": 139.7,
                "B7": 145.7,
                "E5": 149.7
            }
        },
        {
            "site_id": "gcp06t5qh7gh",
            "brand": "Morrisons",
            "address": "South Street",
            "postcode": "PO30 1JQ",
            "location": {
                "longitude": "-1.291737",
                "latitude": "50.697462"
            },
            "prices": {
                "E10": 143.7,
                "B7": 148.7
            }
        },
        {
            "site_id": "gcp95eg6zbv9",
            "brand": "Morrisons",
            "address": "Hawthorn Road",
            "postcode": "BN17 7LA",
            "location": {
                "longitude": "-0.544513",
                "latitude": "50.821857"
            },
            "prices": {
                "E10": 136.7,
                "B7": 142.7,
                "E5": 155.9
            }
        },
        {
            "site_id": "gcrh7b68q6yk",
            "brand": "Morrisons",
            "address": "Gorse Covert Centre",
            "postcode": "LE11 5RX",
            "location": {
                "longitude": "-1.237745",
                "latitude": "52.779752"
            },
            "prices": {
                "E10": 135.7,
                "B7": 140.7
            }
        },
        {
            "site_id": "gcqdt882rqz9",
            "brand": "Morrisons",
            "address": "280 Coventry Road",
            "postcode": "B10 0XA",
            "location": {
                "longitude": "-1.867011",
                "latitude": "52.473529"
            },
            "prices": {
                "E10": 136.7,
                "B7": 140.7,
                "E5": 155.9
            }
        },
        {
            "site_id": "gcpk9gsbp8d7",
            "brand": "Morrisons",
            "address": "Off Basingstoke Road",
            "postcode": "RG2 0HB",
            "location": {
                "longitude": "-0.970935",
                "latitude": "51.435245"
            },
            "prices": {
                "E10": 138.7,
                "B7": 143.7,
                "E5": 155.9
            }
        },
        {
            "site_id": "gcybgbht7tx4",
            "brand": "Morrisons",
            "address": "Shields Road",
            "postcode": "NE6 1EJ",
            "location": {
                "longitude": "-1.586678",
                "latitude": "54.976517"
            },
            "prices": {
                "E10": 138.7,
                "B7": 143.7
            }
        },
        {
            "site_id": "gcrcn6r5f0kn",
            "brand": "Morrisons",
            "address": "Broad Street",
            "postcode": "CB23 6EY",
            "location": {
                "longitude": "-0.0672",
                "latitude": "52.220037"
            },
            "prices": {
                "E10": 142.7,
                "B7": 147.7
            }
        },
        {
            "site_id": "gcpvydq4n78n",
            "brand": "Morrisons",
            "address": "327 Southbury Road",
            "postcode": "EN1 1TW",
            "location": {
                "longitude": "-0.05741",
                "latitude": "51.648465"
            },
            "prices": {
                "E10": 136.9,
                "B7": 143.9
            }
        },
        {
            "site_id": "gcw80fd7zzw2",
            "brand": "Morrisons",
            "address": "Mottram Road",
            "postcode": "SK14 2NN",
            "location": {
                "longitude": "-2.072985",
                "latitude": "53.451917"
            },
            "prices": {
                "E10": 136.7,
                "B7": 140.7
            }
        },
        {
            "site_id": "gcjwwswdgrft",
            "brand": "Morrisons",
            "address": "Beaufort Road",
            "postcode": "NP23 5WS",
            "location": {
                "longitude": "-3.220911",
                "latitude": "51.792812"
            },
            "prices": {
                "E10": 138.7,
                "B7": 143.7
            }
        },
        {
            "site_id": "gcmzwzncg252",
            "brand": "Morrisons",
            "address": "1 Besford Road",
            "postcode": "L25 2RD",
            "location": {
                "longitude": "-2.858018",
                "latitude": "53.388362"
            },
            "prices": {
                "E10": 136.7,
                "B7": 141.7
            }
        },
        {
            "site_id": "gcwcerzyx6gg",
            "brand": "Morrisons",
            "address": "Windsor Court",
            "postcode": "LS27 9BX",
            "location": {
                "longitude": "-1.604031",
                "latitude": "53.744875"
            },
            "prices": {
                "E10": 137.7,
                "B7": 142.7,
                "E5": 155.9
            }
        },
        {
            "site_id": "gcpry5048knx",
            "brand": "Morrisons",
            "address": "4 Barnsdale Drive",
            "postcode": "MK4 4DD",
            "location": {
                "longitude": "-0.790996",
                "latitude": "52.004236"
            },
            "prices": {
                "E10": 138.7,
                "B7": 143.7,
                "E5": 155.9
            }
        },
        {
            "site_id": "gcqpd561347x",
            "brand": "Morrisons",
            "address": "Green Oaks Way",
            "postcode": "WA8 6UA",
            "location": {
                "longitude": "-2.721815",
                "latitude": "53.36769"
            },
            "prices": {
                "E10": 135.7,
                "B7": 142.7,
                "E5": 155.9
            }
        },
        {
            "site_id": "gcp0j5gh282u",
            "brand": "Morrisons",
            "address": "Newport Road",
            "postcode": "PO36 9PA",
            "location": {
                "longitude": "-1.182381",
                "latitude": "50.646331"
            },
            "prices": {
                "E10": 143.7,
                "B7": 148.7,
                "E5": 155.9
            }
        },
        {
            "site_id": "gcqq04ef2ed7",
            "brand": "Morrisons",
            "address": "Dunwoody Way",
            "postcode": "CW1 3AW",
            "location": {
                "longitude": "-2.455763",
                "latitude": "53.100076"
            },
            "prices": {
                "E10": 137.7,
                "B7": 142.7
            }
        },
        {
            "site_id": "u100f68j5w6z",
            "brand": "Morrisons",
            "address": "Dane Road",
            "postcode": "BN25 1DL",
            "location": {
                "longitude": "0.099031",
                "latitude": "50.771462"
            },
            "prices": {
                "E10": 139.7,
                "B7": 145.7,
                "E5": 155.9
            }
        },
        {
            "site_id": "gcq99h1f5cs0",
            "brand": "Morrisons",
            "address": "Buntsford Park Road",
            "postcode": "B60 3DX",
            "location": {
                "longitude": "-2.06286",
                "latitude": "52.317246"
            },
            "prices": {
                "E10": 139.7,
                "B7": 143.7,
                "E5": 149.7
            }
        },
        {
            "site_id": "gcpvxdc3p8p9",
            "brand": "Morrisons",
            "address": "6-7 Salisbury Hall Gardens",
            "postcode": "E4 8SN",
            "location": {
                "longitude": "-0.019924",
                "latitude": "51.607075"
            },
            "prices": {
                "E10": 136.9,
                "B7": 143.9
            }
        },
        {
            "site_id": "gcqeeyn9qfu3",
            "brand": "Morrisons",
            "address": "High Street",
            "postcode": "WS7 3XA",
            "location": {
                "longitude": "-1.935358",
                "latitude": "52.679673"
            },
            "prices": {
                "E10": 135.7,
                "B7": 140.7,
                "E5": 155.9
            }
        },
        {
            "site_id": "gcnctq4egdv7",
            "brand": "Morrisons",
            "address": "Spruce Drive",
            "postcode": "SO40 8AD",
            "location": {
                "longitude": "-1.523509",
                "latitude": "50.92229"
            },
            "prices": {
                "E10": 141.7,
                "B7": 146.7,
                "E5": 151.7
            }
        },
        {
            "site_id": "gcn9mm9x82qr",
            "brand": "Morrisons",
            "address": "Chiltern Drive",
            "postcode": "BH31 6UQ",
            "location": {
                "longitude": "-1.876583",
                "latitude": "50.876229"
            },
            "prices": {
                "E10": 140.7,
                "B7": 144.7,
                "E5": 155.9
            }
        },
        {
            "site_id": "gcwf0w91rdk1",
            "brand": "Morrisons",
            "address": "275 Bradford Road",
            "postcode": "BD10 8EG",
            "location": {
                "longitude": "-1.734139",
                "latitude": "53.824995"
            },
            "prices": {
                "E10": 137.7,
                "B7": 143.7,
                "E5": 155.9
            }
        },
        {
            "site_id": "gcwyjufn43u7",
            "brand": "Morrisons",
            "address": "Morton Park Way",
            "postcode": "DL1 4PJ",
            "location": {
                "longitude": "-1.502278",
                "latitude": "54.51932"
            },
            "prices": {
                "E10": 141.7,
                "B7": 146.7,
                "E5": 155.9
            }
        },
        {
            "site_id": "gcqdxv76t39e",
            "brand": "Morrisons",
            "address": "264 Chester Road",
            "postcode": "B34 7HR",
            "location": {
                "longitude": "-1.764108",
                "latitude": "52.49998"
            },
            "prices": {
                "E10": 138.7,
                "B7": 142.7,
                "E5": 150.7
            }
        },
        {
            "site_id": "gcqfjjmwy89m",
            "brand": "Morrisons",
            "address": "Holyhead Road",
            "postcode": "CV5 8BX",
            "location": {
                "longitude": "-1.530252",
                "latitude": "52.412814"
            },
            "prices": {
                "E10": 138.7,
                "B7": 142.7,
                "E5": 155.9
            }
        },
        {
            "site_id": "gcuypck088u3",
            "brand": "Morrisons",
            "address": "The Triangle Centre",
            "postcode": "G64 2TR",
            "location": {
                "longitude": "-4.224216",
                "latitude": "55.905394"
            },
            "prices": {
                "E10": 136.7,
                "B7": 141.7,
                "E5": 159.9
            }
        },
        {
            "site_id": "gcqmth96ntwn",
            "brand": "Morrisons",
            "address": "Lower Milehouse Lane",
            "postcode": "ST5 9AL",
            "location": {
                "longitude": "-2.239207",
                "latitude": "53.02314"
            },
            "prices": {
                "E10": 137.7,
                "B7": 141.7,
                "E5": 147.7
            }
        },
        {
            "site_id": "gcmx2dhz0g81",
            "brand": "Morrisons",
            "address": "Marsh Road",
            "postcode": "LL18 2DF",
            "location": {
                "longitude": "-3.487097",
                "latitude": "53.317871"
            },
            "prices": {
                "E10": 143.7,
                "B7": 148.7,
                "E5": 155.9
            }
        },
        {
            "site_id": "gfnhxd3e8ted",
            "brand": "Morrisons",
            "address": "North Deeside Road",
            "postcode": "AB31 5YR",
            "location": {
                "longitude": "-2.480824",
                "latitude": "57.054006"
            },
            "prices": {
                "E10": 138.7,
                "B7": 144.7
            }
        },
        {
            "site_id": "gcvmvpfj4dwb",
            "brand": "Morrisons",
            "address": "2 Linkston Way",
            "postcode": "EH48 2SS",
            "location": {
                "longitude": "-3.644598",
                "latitude": "55.897936"
            },
            "prices": {
                "E10": 139.7,
                "B7": 142.7,
                "E5": 159.9
            }
        },
        {
            "site_id": "gcqe0bbb5fm3",
            "brand": "Morrisons",
            "address": "Black Country Route",
            "postcode": "WV14 0DZ",
            "location": {
                "longitude": "-2.075218",
                "latitude": "52.562726"
            },
            "prices": {
                "E10": 137.7,
                "B7": 141.7,
                "E5": 155.9
            }
        },
        {
            "site_id": "gcq6wy933xun",
            "brand": "Morrisons",
            "address": "Charterfield Shopping Centre",
            "postcode": "DY6 7SH",
            "location": {
                "longitude": "-2.16252",
                "latitude": "52.506666"
            },
            "prices": {
                "E10": 137.7,
                "B7": 141.7
            }
        },
        {
            "site_id": "gcmywnhvdhzz",
            "brand": "Morrisons",
            "address": "Mill Lane",
            "postcode": "CH2 1AU",
            "location": {
                "longitude": "-2.893771",
                "latitude": "53.207758"
            },
            "prices": {
                "E10": 139.7,
                "B7": 144.7,
                "E5": 155.9
            }
        },
        {
            "site_id": "gcqewpevjmvu",
            "brand": "Morrisons",
            "address": "Beacon Street",
            "postcode": "WS13 7QP",
            "location": {
                "longitude": "-1.84032",
                "latitude": "52.688573"
            },
            "prices": {
                "E10": 137.7,
                "B7": 142.7
            }
        },
        {
            "site_id": "gcq2ed5r90xm",
            "brand": "Morrisons",
            "address": "Roman Way",
            "postcode": "WR14 1PZ",
            "location": {
                "longitude": "-2.302613",
                "latitude": "52.131418"
            },
            "prices": {
                "E10": 139.7,
                "B7": 145.7,
                "E5": 155.9
            }
        },
        {
            "site_id": "gcqjysnx0nux",
            "brand": "Morrisons",
            "address": "Station Road",
            "postcode": "CW5 5SP",
            "location": {
                "longitude": "-2.517923",
                "latitude": "53.065204"
            },
            "prices": {
                "E10": 138.7,
                "B7": 143.7,
                "E5": 148.7
            }
        },
        {
            "site_id": "gcvq9g11jk1p",
            "brand": "Morrisons",
            "address": "Hope Street",
            "postcode": "FK1 5BU",
            "location": {
                "longitude": "-3.788683",
                "latitude": "56.003002"
            },
            "prices": {
                "E10": 136.7,
                "B7": 140.7
            }
        },
        {
            "site_id": "gcqmt3ep7r51",
            "brand": "Morrisons",
            "address": "Goose Street",
            "postcode": "ST5 3HY",
            "location": {
                "longitude": "-2.225961",
                "latitude": "53.007569"
            },
            "prices": {
                "E10": 137.7,
                "B7": 141.7,
                "E5": 155.9
            }
        },
        {
            "site_id": "gcq9s9jm103c",
            "brand": "Morrisons",
            "address": "Warwick Highway",
            "postcode": "B98 0SW",
            "location": {
                "longitude": "-1.904366",
                "latitude": "52.301275"
            },
            "prices": {
                "E10": 135.7,
                "B7": 140.7,
                "E5": 155.9
            }
        },
        {
            "site_id": "gcnpm6frgd79",
            "brand": "Morrisons",
            "address": "1 Station Street",
            "postcode": "HR9 7AG",
            "location": {
                "longitude": "-2.578542",
                "latitude": "51.915863"
            },
            "prices": {
                "E10": 143.9,
                "B7": 147.9,
                "E5": 155.9
            }
        },
        {
            "site_id": "gcmzrrm1mnvh",
            "brand": "Morrisons",
            "address": "1 Penketh Drive",
            "postcode": "L24 2WZ",
            "location": {
                "longitude": "-2.838371",
                "latitude": "53.345741"
            },
            "prices": {
                "E10": 136.7,
                "B7": 141.7,
                "E5": 155.9
            }
        },
        {
            "site_id": "gcqd46d60ngn",
            "brand": "Morrisons",
            "address": "Rubery",
            "postcode": "B45 9AH",
            "location": {
                "longitude": "-2.007404",
                "latitude": "52.396926"
            },
            "prices": {
                "E10": 139.7,
                "B7": 144.7,
                "E5": 155.9
            }
        },
        {
            "site_id": "gcuvet8597kd",
            "brand": "Morrisons",
            "address": "Anchor Mills",
            "postcode": "PA1 1GZ",
            "location": {
                "longitude": "-4.416444",
                "latitude": "55.841378"
            },
            "prices": {
                "E10": 137.7,
                "B7": 142.7
            }
        },
        {
            "site_id": "gcr5s8gpj157",
            "brand": "Morrisons",
            "address": "Station Road",
            "postcode": "LE3 8BQ",
            "location": {
                "longitude": "-1.20415718650816",
                "latitude": "52.6518118189286"
            },
            "prices": {
                "E10": 139.7,
                "B7": 145.7,
                "E5": 149.7
            }
        },
        {
            "site_id": "u135ntj71ffp",
            "brand": "Morrisons",
            "address": "Blackbird Close",
            "postcode": "NR31 8RT",
            "location": {
                "longitude": "1.69918211772153",
                "latitude": "52.5865904879616"
            },
            "prices": {
                "E10": 135.7,
                "B7": 139.7,
                "E5": 155.9
            }
        },
        {
            "site_id": "gcrrwzxsq9mg",
            "brand": "Morrisons",
            "address": "Heapham Road South",
            "postcode": "DN21 1XY",
            "location": {
                "longitude": "-0.74747",
                "latitude": "53.391545"
            },
            "prices": {
                "E10": 137.7,
                "B7": 140.7
            }
        },
        {
            "site_id": "gcqkzntvbe9g",
            "brand": "Morrisons",
            "address": "Mill St/Church St",
            "postcode": "ST15 8BA",
            "location": {
                "longitude": "-2.1454",
                "latitude": "52.902923"
            },
            "prices": {
                "E10": 138.7,
                "B7": 142.7,
                "E5": 155.9
            }
        },
        {
            "site_id": "gcnhky5x1hyg",
            "brand": "Morrisons",
            "address": "Peterson Avenue",
            "postcode": "BS13 0BE",
            "location": {
                "longitude": "-2.598901",
                "latitude": "51.406257"
            },
            "prices": {
                "E10": 136.7,
                "B7": 142.7,
                "E5": 155.9
            }
        },
        {
            "site_id": "gfjckfwjcxct",
            "brand": "Morrisons",
            "address": "1 Afton Way",
            "postcode": "DD4 8BR",
            "location": {
                "longitude": "-2.947016",
                "latitude": "56.484489"
            },
            "prices": {
                "E10": 135.7,
                "B7": 141.7,
                "E5": 159.9
            }
        },
        {
            "site_id": "gcpmwzdqj940",
            "brand": "Morrisons",
            "address": "Temple End",
            "postcode": "HP13 5XX",
            "location": {
                "longitude": "-0.754728",
                "latitude": "51.634031"
            },
            "prices": {
                "E10": 142.7,
                "B7": 145.7,
                "E5": 155.9
            }
        },
        {
            "site_id": "gcpvf1w275nb",
            "brand": "Morrisons",
            "address": "Stirling Way",
            "postcode": "WD6 2RN",
            "location": {
                "longitude": "-0.254951",
                "latitude": "51.644041"
            },
            "prices": {
                "E10": 137.7,
                "B7": 144.7,
                "E5": 155.9
            }
        },
        {
            "site_id": "gcvwqnrns552",
            "brand": "Morrisons",
            "address": "3 Waterfront Broadway",
            "postcode": "EH5 1SA",
            "location": {
                "longitude": "-3.242164",
                "latitude": "55.977847"
            },
            "prices": {
                "E10": 140.7,
                "B7": 145.7,
                "E5": 159.9
            }
        },
        {
            "site_id": "gcjtqv37tkgy",
            "brand": "Morrisons",
            "address": "Castle Court",
            "postcode": "CF83 1XP",
            "location": {
                "longitude": "-3.217047",
                "latitude": "51.577318"
            },
            "prices": {
                "E10": 140.7,
                "B7": 144.7,
                "E5": 155.9
            }
        },
        {
            "site_id": "gcpx349n7jfx",
            "brand": "Morrisons",
            "address": "Lake Street",
            "postcode": "LU7 1WS",
            "location": {
                "longitude": "-0.657674",
                "latitude": "51.914252"
            },
            "prices": {
                "E10": 135.7,
                "B7": 139.7,
                "E5": 155.9
            }
        },
        {
            "site_id": "gcuwscrfnmc1",
            "brand": "Morrisons",
            "address": "Cardross Road",
            "postcode": "G84 7LB",
            "location": {
                "longitude": "-4.702222",
                "latitude": "55.993569"
            },
            "prices": {
                "E10": 142.7,
                "B7": 147.7,
                "E5": 157.7
            }
        },
        {
            "site_id": "gcvj7fbn0w3u",
            "brand": "Morrisons",
            "address": "5 New Park Street",
            "postcode": "ML3 0BN",
            "location": {
                "longitude": "-4.053931",
                "latitude": "55.782772"
            },
            "prices": {
                "E10": 138.7,
                "B7": 142.7,
                "E5": 156.7
            }
        },
        {
            "site_id": "gcjtp5vrw56d",
            "brand": "Morrisons",
            "address": "Ty Glas Road",
            "postcode": "CF14 5EP",
            "location": {
                "longitude": "-3.200537",
                "latitude": "51.525811"
            },
            "prices": {
                "E10": 138.7,
                "B7": 143.7,
                "E5": 155.9
            }
        },
        {
            "site_id": "u100yx23c7pb",
            "brand": "Morrisons",
            "address": "Lottbridge Drove",
            "postcode": "BN23 6QN",
            "location": {
                "longitude": "0.286052",
                "latitude": "50.796978"
            },
            "prices": {
                "E10": 137.7,
                "B7": 143.7,
                "E5": 155.9
            }
        },
        {
            "site_id": "gcqckvuqbzsh",
            "brand": "Morrisons",
            "address": "Old Warwick Road",
            "postcode": "CV31 3NU",
            "location": {
                "longitude": "-1.543198",
                "latitude": "52.283762"
            },
            "prices": {
                "E10": 139.7,
                "B7": 141.7,
                "E5": 155.9
            }
        },
        {
            "site_id": "gcpuy6r0tqjf",
            "brand": "Morrisons",
            "address": "Aylesham Centre, Rye Lane",
            "postcode": "SE15 5EW",
            "location": {
                "longitude": "-0.067058",
                "latitude": "51.472439"
            },
            "prices": {
                "E10": 136.9,
                "B7": 143.9,
                "E5": 146.9
            }
        },
        {
            "site_id": "gcpv92rbv59x",
            "brand": "Morrisons",
            "address": "Honeypot Lane",
            "postcode": "NW9 6RN",
            "location": {
                "longitude": "-0.285771",
                "latitude": "51.593319"
            },
            "prices": {
                "E10": 147.7,
                "B7": 155.7,
                "E5": 159.7
            }
        },
        {
            "site_id": "gcwc9c410r8w",
            "brand": "Morrisons",
            "address": "17 Union Street",
            "postcode": "WF16 0HD",
            "location": {
                "longitude": "-1.67815",
                "latitude": "53.706878"
            },
            "prices": {
                "E10": 136.7,
                "B7": 141.7,
                "E5": 146.7
            }
        },
        {
            "site_id": "gcvbmhe47c8b",
            "brand": "Morrisons",
            "address": "Kingstown Road",
            "postcode": "CA3 0QZ",
            "location": {
                "longitude": "-2.940054",
                "latitude": "54.912809"
            },
            "prices": {
                "E10": 136.7,
                "B7": 143.7,
                "E5": 146.7
            }
        },
        {
            "site_id": "gcq5yd623v6e",
            "brand": "Morrisons",
            "address": "Spring Hill",
            "postcode": "TF1 1RP",
            "location": {
                "longitude": "-2.523687",
                "latitude": "52.702861"
            },
            "prices": {
                "E10": 139.7,
                "B7": 142.7,
                "E5": 155.9
            }
        },
        {
            "site_id": "gchyvynu3ne0",
            "brand": "Morrisons",
            "address": "Parc Pensarn",
            "postcode": "SA31 2NF",
            "location": {
                "longitude": "-4.30831",
                "latitude": "51.845247"
            },
            "prices": {
                "E10": 135.7,
                "B7": 141.7,
                "E5": 155.9
            }
        },
        {
            "site_id": "gcvmzsr2k379",
            "brand": "Morrisons",
            "address": "Almondvale Road",
            "postcode": "EH54 6GB",
            "location": {
                "longitude": "-3.527454",
                "latitude": "55.877888"
            },
            "prices": {
                "E10": 140.7,
                "B7": 143.7
            }
        },
        {
            "site_id": "gcvjf48nh1xj",
            "brand": "Morrisons",
            "address": "20 Auchinlea Way",
            "postcode": "G34 9JJ",
            "location": {
                "longitude": "-4.130678",
                "latitude": "55.869264"
            },
            "prices": {
                "E10": 136.7,
                "B7": 141.7,
                "E5": 159.9
            }
        },
        {
            "site_id": "gcqdfn8v2rkj",
            "brand": "Morrisons",
            "address": "239 Holyhead Road",
            "postcode": "WS10 7BD",
            "location": {
                "longitude": "-2.020438",
                "latitude": "52.551295"
            },
            "prices": {
                "E10": 137.7,
                "B7": 141.7,
                "E5": 147.7
            }
        },
        {
            "site_id": "gcqhzrsu68gu",
            "brand": "Morrisons",
            "address": "Maer Lane",
            "postcode": "TF9 3AL",
            "location": {
                "longitude": "-2.487261",
                "latitude": "52.908144"
            },
            "prices": {
                "E10": 139.9,
                "B7": 141.9,
                "E5": 155.9
            }
        },
        {
            "site_id": "gcuv9jns04tp",
            "brand": "Morrisons",
            "address": "30 Napier Street",
            "postcode": "PA5 8SF",
            "location": {
                "longitude": "-4.517434",
                "latitude": "55.838714"
            },
            "prices": {
                "E10": 137.7,
                "B7": 143.7,
                "E5": 152.7
            }
        },
        {
            "site_id": "gcqdrs2rr34c",
            "brand": "Morrisons",
            "address": "2259-2297 Coventry Road",
            "postcode": "B26 3PD",
            "location": {
                "longitude": "-1.779127",
                "latitude": "52.451354"
            },
            "prices": {
                "E10": 136.7,
                "B7": 140.7,
                "E5": 155.9
            }
        },
        {
            "site_id": "gcquhwu6w8sx",
            "brand": "Morrisons",
            "address": "Coppice Side",
            "postcode": "DE11 8HL",
            "location": {
                "longitude": "-1.553937",
                "latitude": "52.771887"
            },
            "prices": {
                "E10": 139.7,
                "B7": 143.7,
                "E5": 149.7
            }
        },
        {
            "site_id": "gcmyt0xj5rzf",
            "brand": "Morrisons",
            "address": "High Street",
            "postcode": "CH4 8RU",
            "location": {
                "longitude": "-2.934573",
                "latitude": "53.177475"
            },
            "prices": {
                "E10": 138.7,
                "B7": 143.7,
                "E5": 155.9
            }
        },
        {
            "site_id": "gcn57c21m9ce",
            "brand": "Morrisons",
            "address": "Parkwood Estate (off East Somerset Way)",
            "postcode": "BA5 1SQ",
            "location": {
                "longitude": "-2.647467",
                "latitude": "51.20338"
            },
            "prices": {
                "E10": 142.7,
                "B7": 145.7,
                "E5": 155.9
            }
        },
        {
            "site_id": "gcqmwjfse1xv",
            "brand": "Morrisons",
            "address": "Festival Park",
            "postcode": "ST1 5NY",
            "location": {
                "longitude": "-2.193693",
                "latitude": "53.030414"
            },
            "prices": {
                "E10": 137.7,
                "B7": 141.7,
                "E5": 150.7
            }
        },
        {
            "site_id": "gcr5bzhunmuu",
            "brand": "Morrisons",
            "address": "Whitwick Road",
            "postcode": "LE67 3JN",
            "location": {
                "longitude": "-1.366493",
                "latitude": "52.7296"
            },
            "prices": {
                "E10": 139.7,
                "B7": 144.7,
                "E5": 149.7
            }
        },
        {
            "site_id": "gfnt0k3e1yje",
            "brand": "Morrisons",
            "address": "215 King Street",
            "postcode": "AB24 5DA",
            "location": {
                "longitude": "-2.096246",
                "latitude": "57.1528"
            },
            "prices": {
                "E10": 136.7,
                "B7": 143.7,
                "E5": 159.9
            }
        },
        {
            "site_id": "gcvjv9btyjr5",
            "brand": "Morrisons",
            "address": "Gartlea Road",
            "postcode": "ML6 6EF",
            "location": {
                "longitude": "-3.976097",
                "latitude": "55.865121"
            },
            "prices": {
                "E10": 138.7,
                "B7": 143.7,
                "E5": 159.9
            }
        },
        {
            "site_id": "gcvr4pkvu5f7",
            "brand": "Morrisons",
            "address": "Clackmannan Road",
            "postcode": "FK10 1RQ",
            "location": {
                "longitude": "-3.772599",
                "latitude": "56.115052"
            },
            "prices": {
                "E10": 139.7,
                "B7": 144.7,
                "E5": 154.7
            }
        },
        {
            "site_id": "gfkbpqw75kr5",
            "brand": "Morrisons",
            "address": "Dalmore Road",
            "postcode": "IV17 0UF",
            "location": {
                "longitude": "-4.242977",
                "latitude": "57.692494"
            },
            "prices": {
                "E10": 143.7,
                "B7": 147.7
            }
        },
        {
            "site_id": "gfn1v0spt96q",
            "brand": "Morrisons",
            "address": "Hume Street",
            "postcode": "DD11 1LL",
            "location": {
                "longitude": "-2.587041",
                "latitude": "56.561659"
            },
            "prices": {
                "E10": 139.7,
                "B7": 142.7
            }
        },
        {
            "site_id": "gcueqz266429",
            "brand": "Morrisons",
            "address": "Castlehill Road",
            "postcode": "KA7 2HT",
            "location": {
                "longitude": "-4.624814",
                "latitude": "55.455263"
            },
            "prices": {
                "E10": 136.7,
                "B7": 142.7,
                "E5": 151.7
            }
        },
        {
            "site_id": "gcjvg7d7bx28",
            "brand": "Morrisons",
            "address": "Grange Road",
            "postcode": "NP44 1QP",
            "location": {
                "longitude": "-3.018128",
                "latitude": "51.655651"
            },
            "prices": {
                "E10": 139.7,
                "B7": 144.7,
                "E5": 155.9
            }
        },
        {
            "site_id": "gcvjs92me8kc",
            "brand": "Morrisons",
            "address": "John Street",
            "postcode": "ML4 1RJ",
            "location": {
                "longitude": "-4.020496",
                "latitude": "55.818359"
            },
            "prices": {
                "E10": 137.7,
                "B7": 142.7
            }
        },
        {
            "site_id": "gcvjqcy1xzp6",
            "brand": "Morrisons",
            "address": "160 Kirk Road",
            "postcode": "ML2 7BJ",
            "location": {
                "longitude": "-3.913537",
                "latitude": "55.77651"
            },
            "prices": {
                "E10": 139.7,
                "B7": 141.7,
                "E5": 154.7
            }
        },
        {
            "site_id": "gcqe1kc912z2",
            "brand": "Morrisons",
            "address": "Middle Piece Way",
            "postcode": "WV13 1QG",
            "location": {
                "longitude": "-2.05232",
                "latitude": "52.584862"
            },
            "prices": {
                "E10": 138.7,
                "B7": 144.7,
                "E5": 155.9
            }
        },
        {
            "site_id": "gcyt65hr8w4x",
            "brand": "Morrisons",
            "address": "Loaning Meadows",
            "postcode": "TD15 1UQ",
            "location": {
                "longitude": "-2.015623",
                "latitude": "55.784402"
            },
            "prices": {
                "E10": 139.7,
                "B7": 144.7,
                "E5": 155.9
            }
        },
        {
            "site_id": "gcuy20n7vxe3",
            "brand": "Morrisons",
            "address": "Glasgow Road",
            "postcode": "G82 1QZ",
            "location": {
                "longitude": "-4.561489",
                "latitude": "55.943067"
            },
            "prices": {
                "E10": 142.7,
                "B7": 146.7,
                "E5": 157.7
            }
        },
        {
            "site_id": "gcjfgduqyudg",
            "brand": "Morrisons",
            "address": "The Broadway",
            "postcode": "TA6 3LN",
            "location": {
                "longitude": "-3.004124",
                "latitude": "51.124688"
            },
            "prices": {
                "E10": 139.7,
                "B7": 144.7,
                "E5": 155.9
            }
        },
        {
            "site_id": "gcnhy7m1p8fe",
            "brand": "Morrisons",
            "address": "668-718 Fishponds Road",
            "postcode": "BS16 3US",
            "location": {
                "longitude": "-2.53065",
                "latitude": "51.47799"
            },
            "prices": {
                "E10": 136.7,
                "B7": 142.7,
                "E5": 155.9
            }
        },
        {
            "site_id": "gcyb9jf1c4sj",
            "brand": "Morrisons",
            "address": "Shibdon Road",
            "postcode": "NE21 5QE",
            "location": {
                "longitude": "-1.711072",
                "latitude": "54.963541"
            },
            "prices": {
                "E10": 139.7,
                "B7": 144.7,
                "E5": 155.9
            }
        },
        {
            "site_id": "gcnx0h3kzpdh",
            "brand": "Morrisons",
            "address": "Caernarvon Road",
            "postcode": "GL51 3BW",
            "location": {
                "longitude": "-2.107355",
                "latitude": "51.879671"
            },
            "prices": {
                "E10": 135.7,
                "B7": 140.7,
                "E5": 145.7
            }
        },
        {
            "site_id": "gcybf4rv9xjs",
            "brand": "Morrisons",
            "address": "200 Two Ball Lonnen",
            "postcode": "NE4 9SZ",
            "location": {
                "longitude": "-1.659207",
                "latitude": "54.988928"
            },
            "prices": {
                "E10": 138.7,
                "B7": 143.7,
                "E5": 155.9
            }
        },
        {
            "site_id": "gcn4fndf90vu",
            "brand": "Morrisons",
            "address": "Street Road",
            "postcode": "BA6 9ED",
            "location": {
                "longitude": "-2.720782",
                "latitude": "51.144538"
            },
            "prices": {
                "E10": 143.7,
                "B7": 147.7,
                "E5": 155.9
            }
        },
        {
            "site_id": "gcqwuwtd4ybd",
            "brand": "Morrisons",
            "address": "Bakewell Road",
            "postcode": "SK17 9TB",
            "location": {
                "longitude": "-1.903949",
                "latitude": "53.253859"
            },
            "prices": {
                "E10": 140.7,
                "B7": 146.7,
                "E5": 150.7
            }
        },
        {
            "site_id": "gcqxke2jup9v",
            "brand": "Morrisons",
            "address": "Market Street",
            "postcode": "SK23 0HY",
            "location": {
                "longitude": "-1.911447",
                "latitude": "53.324545"
            },
            "prices": {
                "E10": 139.7,
                "B7": 145.7
            }
        },
        {
            "site_id": "gcrwg3kd32nj",
            "brand": "Morrisons",
            "address": "Tritton Road",
            "postcode": "LN6 7QL",
            "location": {
                "longitude": "-0.554061",
                "latitude": "53.225027"
            },
            "prices": {
                "E10": 136.7,
                "B7": 140.7,
                "E5": 155.9
            }
        },
        {
            "site_id": "gcqe4d0q5kkq",
            "brand": "Morrisons",
            "address": "Wallows Lane",
            "postcode": "WS2 9BZ",
            "location": {
                "longitude": "-1.999023",
                "latitude": "52.570634"
            },
            "prices": {
                "E10": 137.7,
                "B7": 141.7,
                "E5": 147.7
            }
        },
        {
            "site_id": "gcq5cycncbm6",
            "brand": "Morrisons",
            "address": "Whitchurch Road",
            "postcode": "SY1 4DL",
            "location": {
                "longitude": "-2.73414",
                "latitude": "52.728669"
            },
            "prices": {
                "E10": 137.7,
                "B7": 142.7,
                "E5": 147.7
            }
        },
        {
            "site_id": "gcqfp69ygg8w",
            "brand": "Morrisons",
            "address": "Skipworth Road",
            "postcode": "CV3 2AN",
            "location": {
                "longitude": "-1.436644",
                "latitude": "52.397724"
            },
            "prices": {
                "E10": 139.7,
                "B7": 143.7,
                "E5": 155.9
            }
        },
        {
            "site_id": "gcv3q0bcvbfb",
            "brand": "Morrisons",
            "address": "Brooms Road",
            "postcode": "DG1 2DR",
            "location": {
                "longitude": "-3.602235",
                "latitude": "55.067901"
            },
            "prices": {
                "E10": 136.7,
                "B7": 140.7,
                "E5": 159.9
            }
        },
        {
            "site_id": "gcvwqt02503b",
            "brand": "Morrisons",
            "address": "102 Pilton Drive",
            "postcode": "EH5 2XS",
            "location": {
                "longitude": "-3.229506",
                "latitude": "55.96985"
            },
            "prices": {
                "E10": 139.7,
                "B7": 144.7,
                "E5": 159.9
            }
        },
        {
            "site_id": "gcvy0d0qg5q8",
            "brand": "Morrisons",
            "address": "Gilmerton Road",
            "postcode": "EH17 7JQ",
            "location": {
                "longitude": "-3.141609",
                "latitude": "55.9106"
            },
            "prices": {
                "E10": 139.7,
                "B7": 143.7,
                "E5": 159.9
            }
        },
        {
            "site_id": "gcvy26q9xkp5",
            "brand": "Morrisons",
            "address": "Portobello Road",
            "postcode": "EH8 7EF",
            "location": {
                "longitude": "-3.143829",
                "latitude": "55.955022"
            },
            "prices": {
                "E10": 139.7,
                "B7": 143.7,
                "E5": 154.7
            }
        },
        {
            "site_id": "gcvwhx4h0m93",
            "brand": "Morrisons",
            "address": "South Gyle Broadway",
            "postcode": "EH12 9JU",
            "location": {
                "longitude": "-3.315112",
                "latitude": "55.937606"
            },
            "prices": {
                "E10": 140.7,
                "B7": 144.7,
                "E5": 159.9
            }
        },
        {
            "site_id": "gcmzjf099gyc",
            "brand": "Morrisons",
            "address": "Chester Road",
            "postcode": "CH65 6RU",
            "location": {
                "longitude": "-2.910606",
                "latitude": "53.272983"
            },
            "prices": {
                "E10": 140.7,
                "B7": 146.7,
                "E5": 155.9
            }
        },
        {
            "site_id": "eykjw5bzy2zk",
            "brand": "Morrisons",
            "address": "Westside Road",
            "postcode": "GX11 1AA",
            "location": {
                "longitude": "-5.360020161",
                "latitude": "36.14498138"
            },
            "prices": {
                "E10": 107.9,
                "B7": 107.9,
                "E5": 111.9
            }
        },
        {
            "site_id": "gcjwn92dh306",
            "brand": "Morrisons",
            "address": "Bargoed Gateway",
            "postcode": "CF81 8NX",
            "location": {
                "longitude": "-3.229111",
                "latitude": "51.686903"
            },
            "prices": {
                "E10": 142.7,
                "B7": 145.7,
                "E5": 155.9
            }
        },
        {
            "site_id": "gfh77b43cgp4",
            "brand": "Morrisons",
            "address": "An Aird Road",
            "postcode": "PH33 6AN",
            "location": {
                "longitude": "-5.105468",
                "latitude": "56.821606"
            },
            "prices": {
                "E10": 144.9,
                "B7": 148.9,
                "E5": 159.9
            }
        },
        {
            "site_id": "gcuvvwg05em7",
            "brand": "Morrisons",
            "address": "900 Crow Road",
            "postcode": "G13 1HY",
            "location": {
                "longitude": "-4.324336",
                "latitude": "55.891589"
            },
            "prices": {
                "E10": 139.7,
                "B7": 144.7,
                "E5": 159.9
            }
        },
        {
            "site_id": "gcnrj2urrnrz",
            "brand": "Morrisons",
            "address": "Metz Way",
            "postcode": "GL1 1AH",
            "location": {
                "longitude": "-2.224077",
                "latitude": "51.860868"
            },
            "prices": {
                "E10": 135.7,
                "B7": 140.7,
                "E5": 145.7
            }
        },
        {
            "site_id": "gcqrzv1xs98j",
            "brand": "Morrisons",
            "address": "Stockport Road West",
            "postcode": "SK6 2BN",
            "location": {
                "longitude": "-2.118108",
                "latitude": "53.422317"
            },
            "prices": {
                "E10": 136.7,
                "B7": 141.7,
                "E5": 155.9
            }
        },
        {
            "site_id": "gcnrz1hp57uf",
            "brand": "Morrisons",
            "address": "Ashchurch Road",
            "postcode": "GL20 8AB",
            "location": {
                "longitude": "-2.147681",
                "latitude": "51.99402"
            },
            "prices": {
                "E10": 137.7,
                "B7": 143.7,
                "E5": 147.7
            }
        },
        {
            "site_id": "gcqpthqqhd8c",
            "brand": "Morrisons",
            "address": "Greenalls Avenue",
            "postcode": "WA4 6RN",
            "location": {
                "longitude": "-2.583996",
                "latitude": "53.373999"
            },
            "prices": {
                "E10": 138.7,
                "B7": 142.7,
                "E5": 155.9
            }
        },
        {
            "site_id": "gcqg3csk8ywm",
            "brand": "Morrisons",
            "address": "Marlborough Way",
            "postcode": "B77 2NY",
            "location": {
                "longitude": "-1.675031",
                "latitude": "52.611587"
            },
            "prices": {
                "E10": 139.7,
                "B7": 145.7,
                "E5": 149.7
            }
        },
        {
            "site_id": "gcqnwu2fv410",
            "brand": "Morrisons",
            "address": "Nat Lane",
            "postcode": "CW7 3GZ",
            "location": {
                "longitude": "-2.514623",
                "latitude": "53.197657"
            },
            "prices": {
                "E10": 138.7,
                "B7": 143.7,
                "E5": 148.7
            }
        },
        {
            "site_id": "gcvjdxe4p2qk",
            "brand": "Morrisons",
            "address": "Ravenswood Road",
            "postcode": "G69 7HU",
            "location": {
                "longitude": "-4.104447",
                "latitude": "55.852091"
            },
            "prices": {
                "E10": 136.7,
                "B7": 141.7,
                "E5": 159.9
            }
        },
        {
            "site_id": "gcvxxyxe2rqr",
            "brand": "Morrisons",
            "address": "Flemington Road",
            "postcode": "KY7 5QS",
            "location": {
                "longitude": "-3.16473",
                "latitude": "56.198413"
            },
            "prices": {
                "E10": 136.7,
                "B7": 143.7,
                "E5": 159.9
            }
        },
        {
            "site_id": "gcuw7bm7z6dk",
            "brand": "Morrisons",
            "address": "Rue End Street",
            "postcode": "PA15 1EL",
            "location": {
                "longitude": "-4.749556",
                "latitude": "55.944414"
            },
            "prices": {
                "E10": 136.7,
                "B7": 142.7,
                "E5": 159.9
            }
        },
        {
            "site_id": "gcn7q363ty1h",
            "brand": "Morrisons",
            "address": "Weymouth Street",
            "postcode": "BA12 9NJ",
            "location": {
                "longitude": "-2.182941",
                "latitude": "51.203446"
            },
            "prices": {
                "E10": 140.7,
                "B7": 145.7,
                "E5": 150.7
            }
        },
        {
            "site_id": "gcvz0h2b3y1p",
            "brand": "Morrisons",
            "address": "The Esplanade",
            "postcode": "KY1 1SL",
            "location": {
                "longitude": "-3.162956",
                "latitude": "56.097641"
            },
            "prices": {
                "E10": 138.7,
                "B7": 144.7,
                "E5": 159.9
            }
        },
        {
            "site_id": "gcy52djc7hy5",
            "brand": "Morrisons",
            "address": "Mart Street",
            "postcode": "TD9 9NQ",
            "location": {
                "longitude": "-2.782494",
                "latitude": "55.426266"
            },
            "prices": {
                "E10": 136.7,
                "B7": 139.7,
                "E5": 159.9
            }
        },
        {
            "site_id": "gcmxxkngnzkw",
            "brand": "Morrisons",
            "address": "Dee Lane",
            "postcode": "CH48 0QA",
            "location": {
                "longitude": "-3.187456",
                "latitude": "53.372137"
            },
            "prices": {
                "E10": 137.7,
                "B7": 143.7,
                "E5": 155.9
            }
        },
        {
            "site_id": "gcjujsx3fq7u",
            "brand": "Morrisons",
            "address": "Locking Castle",
            "postcode": "BS24 7AY",
            "location": {
                "longitude": "-2.912305",
                "latitude": "51.353179"
            },
            "prices": {
                "E10": 141.7,
                "B7": 145.7,
                "E5": 155.9
            }
        },
        {
            "site_id": "gfjp001hymvw",
            "brand": "Morrisons",
            "address": "Millburn Road",
            "postcode": "IV2 3PX",
            "location": {
                "longitude": "-4.217101",
                "latitude": "57.481316"
            },
            "prices": {
                "E10": 138.7,
                "B7": 144.7
            }
        },
        {
            "site_id": "gctqq3tdqbu1",
            "brand": "Morrisons",
            "address": "Flatt Walks",
            "postcode": "CA28 7RJ",
            "location": {
                "longitude": "-3.584681",
                "latitude": "54.544763"
            },
            "prices": {
                "E10": 136.7,
                "B7": 143.7,
                "E5": 146.7
            }
        },
        {
            "site_id": "gfnmcs25qtp0",
            "brand": "Morrisons",
            "address": "Blackhall Road",
            "postcode": "AB51 4JP",
            "location": {
                "longitude": "-2.394731",
                "latitude": "57.284673"
            },
            "prices": {
                "E10": 139.7,
                "B7": 143.7,
                "E5": 159.9
            }
        },
        {
            "site_id": "gcnm0yykjg1q",
            "brand": "Morrisons",
            "address": "Station Road",
            "postcode": "BS37 5PW",
            "location": {
                "longitude": "-2.419147",
                "latitude": "51.541689"
            },
            "prices": {
                "E10": 139.7,
                "B7": 144.7,
                "E5": 149.7
            }
        },
        {
            "site_id": "gctqyfgnyheg",
            "brand": "Morrisons",
            "address": "Derwent Drive",
            "postcode": "CA14 3UG",
            "location": {
                "longitude": "-3.566174",
                "latitude": "54.640313"
            },
            "prices": {
                "E10": 136.7,
                "B7": 143.7,
                "E5": 155.9
            }
        },
        {
            "site_id": "gcp5wu6ct75b",
            "brand": "Morrisons",
            "address": "Worting Road",
            "postcode": "RG21 8BJ",
            "location": {
                "longitude": "-1.105612",
                "latitude": "51.263854"
            },
            "prices": {
                "E10": 138.7,
                "B7": 144.7,
                "E5": 155.9
            }
        },
        {
            "site_id": "gcnkz6zyej2v",
            "brand": "Morrisons",
            "address": "Cepen Park North",
            "postcode": "SN14 6UZ",
            "location": {
                "longitude": "-2.131561",
                "latitude": "51.476212"
            },
            "prices": {
                "E10": 141.7,
                "B7": 146.7,
                "E5": 155.9
            }
        },
        {
            "site_id": "gcjubrpwuefw",
            "brand": "Morrisons",
            "address": "507 Newport Road",
            "postcode": "CF23 9UF",
            "location": {
                "longitude": "-3.14258",
                "latitude": "51.499593"
            },
            "prices": {
                "E10": 138.7,
                "B7": 143.7,
                "E5": 155.9
            }
        },
        {
            "site_id": "gcnjhsr944vd",
            "brand": "Morrisons",
            "address": "Lysander Road",
            "postcode": "BS10 7UD",
            "location": {
                "longitude": "-2.604353",
                "latitude": "51.527439"
            },
            "prices": {
                "E10": 137.7,
                "B7": 143.7,
                "E5": 155.9
            }
        },
        {
            "site_id": "gcjv9bypjmyh",
            "brand": "Morrisons",
            "address": "Azalea Road",
            "postcode": "NP10 9HZ",
            "location": {
                "longitude": "-3.078685",
                "latitude": "51.59715"
            },
            "prices": {
                "E10": 137.7,
                "B7": 141.7
            }
        }
    ]
}